{
  "type": "FeatureCollection",
  "features": [
    {
      "type": "Feature",
      "geometry": {
        "type": "Point",
        "coordinates": [
          -65.21864,
          -13.76043
        ]
      },
      "properties": {
        "state": "Bolivia",
        "name": "Beni",
        "population": 8,
        "contagios":5289,
        "Muertes":291,
        "recuperados":289
      }
    },
    {
      "type": "Feature",
      "geometry": {
        "type": "Point",
        "coordinates": [
          -64.28779,
          -20.0459
        ]
      },
      "properties": {
        "state": "Bolivia",
        "name": "Chuquisaca",
        "population": 10,
        "contagios":1826,
        "Muertes":108,
        "recuperados":108
      }
    },
    {
      "type": "Feature",
      "geometry": {
        "type": "Point",
        "coordinates": [
          -65.61957,
          -17.18119
        ]
      },
      "properties": {
        "state": "Bolivia",
        "name": "Cochabamba",
        "population": 3,
        "contagios":6246,
        "Muertes":603,
        "recuperados":571
      }
    },
    {
      "type": "Feature",
      "geometry": {
        "type": "Point",
        "coordinates": [
          -68.12862,
          -15.23296
        ]
      },
      "properties": {
        "state": "Bolivia",
        "name": "La Paz",
        "population": 2,
       "contagios":13371,
        "Muertes":218,
        "recuperados":226
      }
    },
    {
      "type": "Feature",
      "geometry": {
        "type": "Point",
        "coordinates": [
          -67.6842,
          -18.64323
        ]
      },
      "properties": {
        "state": "Bolivia",
        "name": "Oruro",
        "population": 9,
       "contagios":2287,
        "Muertes":179,
        "recuperados":191
      }
    },
    {
      "type": "Feature",
      "geometry": {
        "type": "Point",
        "coordinates": [
          -67.32107,
          -11.09351
        ]
      },
      "properties": {
        "state": "Bolivia",
        "name": "Pando",
        "population": 7,
         "contagios":1365,
         "Muertes":117,
         "recuperados":117
      }
    },
    {
      "type": "Feature",
      "geometry": {
        "type": "Point",
        "coordinates": [
          -66.73026,
          -20.54665
        ]
      },
      "properties": {
        "state": "Bolivia",
        "name": "Potosi",
        "population": 6,
         "contagios":1289,
         "Muertes":49,
         "recuperados":52

      }
    },
    {
      "type": "Feature",
      "geometry": {
        "type": "Point",
        "coordinates": [
          -61.50252,
          -17.25653
        ]
      },
      "properties": {
        "state": "Bolivia",
        "name": "Santa Cruz",
        "population": 5,
         "contagios":30243,
          "Muertes":967,
          "recuperados":928
      }
    },
    {
      "type": "Feature",
      "geometry": {
        "type": "Point",
        "coordinates": [
          -63.88114,
          -21.59624
        ]
      },
      "properties": {
        "state": "Bolivia",
        "name": "Tarija",
        "population": 4,
         "contagios":2825,
          "Muertes":80,
          "recuperados":76
      }
    }
  ]
}
